{
  "type": "FeatureCollection",
  "features": [
    {
      "type": "Feature",
      "geometry": {
        "type": "Point",
        "coordinates": [
	  -73.92025045584433,
	  40.82167210786891
        ]
      },
      "properties": {
        "name": "City Harvest Mobile Market, Melrose",
        "streetAddress": "286 E 156th St, at the Classic Center",
        "addressLocality": "Bronx",
        "addressRegion": "NY",
        "postalCode": "10451",
        "geolocation": {
          "type": "Point",
          "coordinates": [
	  -73.92025045584433,
	  40.82167210786891
          ]
        },
        "status": "open",
        "addressCountry": "US",
        "hours": [
          {
            "days": [null],
            "timeStart": "9:30",
            "timeEnd": "11:30",
            "notes": "Only 2nd Saturday and 4th Wednesday of each month"
          }
        ],
        "notes": "- Must be a Bronx resident to receive food"
      }
    },
    {
      "type": "Feature",
      "geometry": {
        "type": "Point",
        "coordinates": [
          -74.01912045298224,
          40.64859633888526
        ]
      },
      "properties": {
        "name": "City Harvest Mobile Market, Sunset Park",
        "streetAddress": "City Harvest Food Rescue Center, 52nd St and 1st Avenue",
        "addressLocality": "Brooklyn",
        "addressRegion": "NY",
        "postalCode": "11232",
        "geolocation": {
          "type": "Point",
          "coordinates": [
          -74.01912045298224,
          40.64859633888526
          ]
        },
        "status": "open",
        "addressCountry": "US",
        "hours": [
          {
            "days": [null],
            "timeStart": "9:30",
            "timeEnd": "11:30",
            "notes": "Only 2nd Friday and 4th Saturday of each month"
          }
        ],
        "notes": "- Must be a Brooklyn resident to receive food"
      }
    },
    {
      "type": "Feature",
      "geometry": {
        "type": "Point",
        "coordinates": [
          -73.94461675532463,
          40.75572388187865
        ]
      },
      "properties": {
        "name": "City Harvest Mobile Market, Queensbridge",
        "streetAddress": "Basketball court directly behind the Jacob A. Riis Neighborhood Settlement House at 40-07 Vernon Boulevard",
        "addressLocality": "Queens",
        "addressRegion": "NY",
        "postalCode": "11101",
        "geolocation": {
          "type": "Point",
          "coordinates": [
          -73.94461675532463,
          40.75572388187865
          ]
        },
        "status": "open",
        "addressCountry": "US",
        "hours": [
          {
            "days": [null],
            "timeStart": "9:30",
            "timeEnd": "11:30",
            "notes": "Only 1st Wednesday and 3rd Saturday of each month"
          }
        ],
        "notes": "- Must be a Queens resident to receive food"
      }
    },
    {
      "type": "Feature",
      "geometry": {
        "type": "Point",
        "coordinates": [
          -73.9418728744004,
          40.83101156812198
        ]
      },
      "properties": {
        "name": "City Harvest Mobile Market, Prince Hall",
        "streetAddress": "Prince Hall Masonic Temple, 454 W 155th St, near the corner of St. Nicholas Avenue",
        "addressLocality": "New York",
        "addressRegion": "NY",
        "postalCode": "10032",
        "geolocation": {
          "type": "Point",
          "coordinates": [
          -73.9418728744004,
          40.83101156812198
          ]
        },
        "status": "open",
        "addressCountry": "US",
        "hours": [
          {
            "days": [null],
            "timeStart": "9:30",
            "timeEnd": "11:30",
            "notes": "Only 2nd Thursday and 4th Saturday of each month"
          }
        ],
        "notes": "- Must be a Manhattan resident to receive food"
      }
    },
    {
      "type": "Feature",
      "geometry": {
        "type": "Point",
        "coordinates": [
          -73.93326110863056,
          40.77275790484195
        ]
      },
      "properties": {
        "name": "City Harvest Mobile Market, Astoria",
        "streetAddress": "Basketball court off of Astoria Boulevard, in the Astoria Houses",
        "addressLocality": "Queens",
        "addressRegion": "NY",
        "postalCode": "11102",
        "geolocation": {
          "type": "Point",
          "coordinates": [
          -73.93326110863056,
          40.77275790484195
          ]
        },
        "status": "open",
        "addressCountry": "US",
        "hours": [
          {
            "days": [null],
            "timeStart": "9:30",
            "timeEnd": "11:30",
            "notes": "Only 1st Wednesday and 3rd Saturday of each month"
          }
        ],
        "notes": "- Must be a Queens resident to receive food"
      }
    },
    {
      "type": "Feature",
      "geometry": {
        "type": "Point",
        "coordinates": [
          -73.92396613706121,
          40.860276796509666
        ]
      },
      "properties": {
        "name": "City Harvest Mobile Market, Washington Heights/Inwood",
        "streetAddress": "Nagle Ave & 10th Ave on Dyckman St",
        "addressLocality": "New York",
        "addressRegion": "NY",
        "postalCode": "10034",
        "geolocation": {
          "type": "Point",
          "coordinates": [
          -73.92396613706121,
          40.860276796509666
          ]
        },
        "status": "open",
        "addressCountry": "US",
        "hours": [
          {
            "days": [null],
            "timeStart": "9:30",
            "timeEnd": "11:30",
            "notes": "Only 2nd Wednesday and 4th Saturday of each month"
          }
        ],
        "notes": "- Must be a Manhattan resident to receive food"
      }
    },
    {
      "type": "Feature",
      "geometry": {
        "type": "Point",
        "coordinates": [
            -74.081849,
          40.621053
        ]
      },
      "properties": {
        "name": "City Harvest Mobile Market, Stapleton",
        "streetAddress": "Corner of Warren St. (Cheryl White) and Hill St.",
        "addressLocality": "Staten Island",
        "addressRegion": "NY",
        "postalCode": "10304",
        "geolocation": {
          "type": "Point",
          "coordinates": [
            -74.081849,
            40.621053
          ]
        },
        "status": "open",
        "addressCountry": "US",
        "hours": [
          {
            "days": [null],
            "timeStart": "9:30",
            "timeEnd": "11:30",
            "notes": "Only 1st Tuesday and 3rd Saturday of each month"
          }
        ],
        "notes": "- must be a Staten Island resident to receive food"
      }
    },
    {
      "type": "Feature",
      "geometry": {
        "type": "Point",
        "coordinates": [
          -73.94612087257494,
          40.696197243224255
        ]
      },
      "properties": {
        "name": "City Harvest Mobile Market, Bed Stuy",
        "streetAddress": "Handball court of the Tompkins Houses on Myrtle Avenue, between Throop and Tompkins Avenues",
        "addressLocality": "Brooklyn",
        "addressRegion": "NY",
        "postalCode": "11206",
        "geolocation": {
          "type": "Point",
          "coordinates": [
          -73.94612087257494,
          40.696197243224255
          ]
        },
        "status": "open",
        "addressCountry": "US",
        "hours": [
          {
            "days": [null],
            "timeStart": "9:30",
            "timeEnd": "13:30",
            "notes": "Only 3rd Wednesday and 1st Saturday of each month"
          }
        ],
        "notes": "- Must be a Brooklyn resident to receive food"
      }
    },
    {
      "type": "Feature",
      "geometry": {
        "type": "Point",
        "coordinates": [
          -73.90975084005572,
          40.81520313463588
        ]
      },
      "properties": {
        "name": "City Harvest Mobile Market, St. Mary's",
        "streetAddress": "Parking Lot Adjacent to 595 Trinity Ave",
        "addressLocality": "Bronx",
        "addressRegion": "NY",
        "postalCode": "10455",
        "geolocation": {
          "type": "Point",
          "coordinates": [
          -73.90975084005572,
            40.81520313463588
          ]
        },
        "status": "open",
        "addressCountry": "US",
        "hours": [
          {
            "days": [null],
            "timeStart": "9:30",
            "timeEnd": "11:30",
            "notes": "Only 4th Tuesday and 2nd Saturday of each month"
          }
        ],
        "notes": "- Must be a Bronx resident to receive food"
      }
    }
  ]
}
